[
    {
        "agencia": "Las Flores",
        "distrito": "San Juan De Lurigancho",
        "provincia": "Lima",
        "departamento": "Lima",
        "direccion": "Las Flores de Primavera 1487",
        "lat": -12.0046896,
        "lon": -77.01232817
    },
    {
        "agencia": "Punchana",
        "distrito": "Punchana",
        "provincia": "Maynas",
        "departamento": "Loreto",
        "direccion": "Av. La Marina N° 944",
        "lat": -3.731367,
        "lon": -73.240647
    },
    {
        "agencia": "Conquistadores",
        "distrito": "San Isidro",
        "provincia": "Lima",
        "departamento": "Lima",
        "direccion": "Av. Conquistadores 968",
        "lat": -12.10568371,
        "lon": -77.03735314
    },
    {
        "agencia": "Salvador Allende",
        "distrito": "Villa Maria del Triunfo",
        "provincia": "Lima",
        "departamento": "Lima",
        "direccion": "Av. Salvador Allende 468 – Villa María del Triunfo",
        "lat": -12.158153,
        "lon": -76.957646
    },
    {
        "agencia": "Siglo XX (030)",
        "distrito": "Arequipa",
        "provincia": "Arequipa",
        "departamento": "Lima",
        "direccion": "28 De Julio 538, Iquitos 16003",
        "lat": -3.7277389,
        "lon": -73.2451509
    }
]